[{"name":"Hà Nội","lat":21.0294498,"lon":105.8544441},{"name":"Hải Phòng","lat":20.858864,"lon":106.6749591},{"name":"Đà Nẵng","lat":16.068,"lon":108.212},{"name":"Sài Gòn","lat":10.7758439,"lon":106.7017555},{"name":"Thủ Đức","lat":10.8298295,"lon":106.7617899},{"name":"Cần Thơ","lat":10.0364216,"lon":105.7875219},{"name":"Bà Rịa","lat":10.4962696,"lon":107.1688433},{"name":"Bạc Liêu","lat":9.2824882,"lon":105.7260685},{"name":"Bảo Lộc","lat":11.5506941,"lon":107.8092511},{"name":"Bắc Giang","lat":21.2795479,"lon":106.2038074},{"name":"Bắc Kạn","lat":22.1494915,"lon":105.837248},{"name":"Bắc Ninh","lat":21.1781515,"lon":106.0710078},{"name":"Biên Hòa","lat":10.9509538,"lon":106.8226134},{"name":"Bến Cát","lat":11.1392959,"lon":106.6094448},{"name":"Bến Tre","lat":10.2448214,"lon":106.3734823},{"name":"Buôn Ma Thuột","lat":12.6796827,"lon":108.0447368},{"name":"Cam Ranh","lat":11.9166696,"lon":109.14861},{"name":"Cao Bằng","lat":22.6657612,"lon":106.2588307},{"name":"Cao Lãnh","lat":10.4620322,"lon":105.6357948},{"name":"Cà Mau","lat":9.1792215,"lon":105.1457909},{"name":"Cẩm Phả","lat":21.004432,"lon":107.278029},{"name":"Châu Đốc","lat":10.7101815,"lon":105.1188675},{"name":"Chí Linh","lat":21.1074209,"lon":106.3873204},{"name":"Dĩ An","lat":10.892242,"lon":106.7631404},{"name":"Đà Lạt","lat":11.9402416,"lon":108.4375758},{"name":"Điện Biên Phủ","lat":21.3874893,"lon":103.0185},{"name":"Đông Hà","lat":16.8172845,"lon":107.1010378},{"name":"Đồng Hới","lat":17.4659566,"lon":106.5984715},{"name":"Đồng Xoài","lat":11.5389583,"lon":106.9047378},{"name":"Gò Công","lat":10.3629555,"lon":106.6767031},{"name":"Gia Nghĩa","lat":23.4811089,"lon":120.4535412},{"name":"Hà Giang","lat":22.8264592,"lon":104.9846342},{"name":"Hà Tiên","lat":10.3828019,"lon":104.4859503},{"name":"Hà Tĩnh","lat":18.3452745,"lon":105.9019482},{"name":"Hạ Long","lat":20.9528365,"lon":107.0800003},{"name":"Hải Dương","lat":20.9430878,"lon":106.3225388},{"name":"Hòa Bình","lat":20.8130014,"lon":105.3452974},{"name":"Hội An","lat":15.8798137,"lon":108.3273939},{"name":"Hồng Ngự","lat":10.8083867,"lon":105.3417921},{"name":"Huế","lat":16.4639321,"lon":107.5863388},{"name":"Hưng Yên","lat":9.8461252,"lon":105.0965668},{"name":"Kon Tum","lat":14.3615256,"lon":108.0039102},{"name":"Lai Châu","lat":22.3996612,"lon":103.4516882},{"name":"Lạng Sơn","lat":21.8528759,"lon":106.7597458},{"name":"Lào Cai","lat":22.4997452,"lon":103.9656924},{"name":"Long Khánh","lat":10.9335279,"lon":107.2416829},{"name":"Long Xuyên","lat":24.3404966,"lon":115.3629774},{"name":"Móng Cái","lat":21.5290279,"lon":107.9691594},{"name":"Mỹ Tho","lat":10.3606197,"lon":106.3658439},{"name":"Nam Định","lat":20.4232641,"lon":106.1688515},{"name":"Ngã Bảy","lat":9.8158331,"lon":105.819098},{"name":"Nha Trang","lat":12.2431693,"lon":109.1898675},{"name":"Ninh Bình","lat":20.2545421,"lon":105.9764854},{"name":"Phan Rang–Tháp Chàm","lat":11.5769829,"lon":108.9865391},{"name":"Phan Thiết","lat":10.931025,"lon":108.1014632},{"name":"Phổ Yên","lat":21.4140993,"lon":105.8725311},{"name":"Phủ Lý","lat":23.1799836,"lon":121.2501235},{"name":"Phú Quốc","lat":10.2153093,"lon":103.9880443},{"name":"Phúc Yên","lat":21.2332705,"lon":105.7035505},{"name":"Pleiku","lat":13.9715982,"lon":108.0143597},{"name":"Quảng Ngãi","lat":15.1190037,"lon":108.8095598},{"name":"Quy Nhơn","lat":13.770409,"lon":109.232667},{"name":"Rạch Giá","lat":10.0107104,"lon":105.0832623},{"name":"Sa Đéc","lat":10.2943716,"lon":105.7588147},{"name":"Sầm Sơn","lat":19.7373081,"lon":105.8933004},{"name":"Sóc Trăng","lat":9.6026724,"lon":105.9733211},{"name":"Sơn La","lat":21.3274048,"lon":103.9151701},{"name":"Sông Công","lat":21.4734139,"lon":105.8424243},{"name":"Tam Điệp","lat":20.1565628,"lon":105.9180352},{"name":"Tam Kỳ","lat":15.5673735,"lon":108.4842128},{"name":"Tân An","lat":10.5359654,"lon":106.4047541},{"name":"Tân Uyên","lat":22.1741089,"lon":103.7547333},{"name":"Tây Ninh","lat":11.3138286,"lon":106.0964769},{"name":"Thái Bình","lat":20.449288,"lon":106.3424893},{"name":"Thái Nguyên","lat":37.870009,"lon":112.5452739},{"name":"Thanh Hóa","lat":19.811719,"lon":105.7745698},{"name":"Thủ Dầu Một","lat":10.9808435,"lon":106.6537483},{"name":"Thuận An","lat":29.6118467,"lon":119.0367741},{"name":"Trà Vinh","lat":9.9355829,"lon":106.3397849},{"name":"Tuy Hòa","lat":13.0877226,"lon":109.2993584},{"name":"Tuyên Quang","lat":21.7879695,"lon":105.217387},{"name":"Từ Sơn","lat":21.113309,"lon":105.9568611},{"name":"Uông Bí","lat":21.0414692,"lon":106.7740261},{"name":"Vị Thanh","lat":9.7832231,"lon":105.4670349},{"name":"Việt Trì","lat":21.324231,"lon":105.3881392},{"name":"Vinh","lat":18.6692445,"lon":105.6881594},{"name":"Vĩnh Long","lat":10.2544281,"lon":105.9669665},{"name":"Vĩnh Yên","lat":18.339226,"lon":105.978942},{"name":"Vũng Tàu","lat":10.3486485,"lon":107.0765028},{"name":"Yên Bái","lat":21.69611,"lon":104.8752392}]